{"placemarks":[
  
  {"address":"2708 S 5th St, Austin, TX 78704, USA","coordinates":[-97.7664,30.23933,0],"engineType":"CE","exterior":"GOOD","fuel":30,"interior":"GOOD","name":"JHD 8522","smartPhoneRequired":true,"vin":"WDCTG4GB4HJ337195"},

  {"address":"2604-2698 Jarratt Ave, Austin, TX 78703, USA","coordinates":[-97.75569,30.2966,0],"engineType":"CE","exterior":"GOOD","fuel":78,"interior":"GOOD","name":"FHB 1550","smartPhoneRequired":false,"vin":"WMEEJ3BA0FK801746"},

  {"address":"3807-3899 Vineland Dr, Austin, TX 78722, USA","coordinates":[-97.71082,30.28979,0],"engineType":"CE","exterior":"GOOD","fuel":84,"interior":"GOOD","name":"CSF 9064","smartPhoneRequired":false,"vin":"WMEEJ3BA2EK733819"},

  {"address":"2001-2099 S Congress Ave, Austin, TX 78704, USA","coordinates":[-97.75169,30.24394,0],"engineType":"CE","exterior":"GOOD","fuel":87,"interior":"GOOD","name":"FBV 4428","smartPhoneRequired":false,"vin":"WMEEJ3BA3FK799491"},

  {"address":"2123-2127 Barton Hills Dr, Austin, TX 78704, USA","coordinates":[-97.7849,30.25297,0],"engineType":"CE","exterior":"GOOD","fuel":100,"interior":"GOOD","name":"FHB 1675","smartPhoneRequired":false,"vin":"WMEEJ3BA3FK803216"},{"address":"atx FACTORY - 5323 Levander Loop - 1 space","coordinates":[-97.69617,30.25034,0],"engineType":"CE","exterior":"GOOD","fuel":24,"interior":"GOOD","name":"FBV 4476","smartPhoneRequired":false,"vin":"WMEEJ3BA3FK802826"},{"address":"435 Sterzing St, Austin, TX 78704, USA","coordinates":[-97.76307,30.26402,0],"engineType":"CE","exterior":"GOOD","fuel":63,"interior":"GOOD","name":"FBV 4363","smartPhoneRequired":false,"vin":"WMEEJ3BA4FK799595"},{"address":"1201-1301 W 25th St, Austin, TX 78705, USA","coordinates":[-97.75111,30.28967,0],"engineType":"CE","exterior":"GOOD","fuel":100,"interior":"GOOD","name":"FGZ 8808","smartPhoneRequired":false,"vin":"WMEEJ3BA8FK802059"},{"address":"The Parking Spot - 1600 TX-71 - 20 spaces","coordinates":[-97.67597,30.22049,0],"engineType":"CE","exterior":"GOOD","fuel":87,"interior":"GOOD","name":"FBV 4429","smartPhoneRequired":false,"vin":"WMEEJ3BA3FK799474"},{"address":"716-798 West Ave, Austin, TX 78701, USA","coordinates":[-97.74996,30.27208,0],"engineType":"CE","exterior":"GOOD","fuel":44,"interior":"GOOD","name":"JHD 8489","smartPhoneRequired":true,"vin":"WDCTG4GB0HJ336724"},{"address":"4122 S Industrial Dr, Austin, TX 78744, USA","coordinates":[-97.74284,30.21149,0],"engineType":"CE","exterior":"GOOD","fuel":90,"interior":"GOOD","name":"FGZ 8806","smartPhoneRequired":false,"vin":"WMEEJ3BA9FK801762"},{"address":"1400-1698 Shoal Creek Blvd, Austin, TX 78701, USA","coordinates":[-97.75019,30.28085,0],"engineType":"CE","exterior":"GOOD","fuel":87,"interior":"GOOD","name":"GGG 3722","smartPhoneRequired":false,"vin":"WMEEJ3BA7FK802943"},{"address":"DeSano Pizzeria - 8000 Burnet Rd - 1 space","coordinates":[-97.73052,30.35866,0],"engineType":"CE","exterior":"GOOD","fuel":63,"interior":"GOOD","name":"FJD 0196","smartPhoneRequired":false,"vin":"WMEEJ3BA9FK800532"},{"address":"1226-1298 Treadwell St, Austin, TX 78704, USA","coordinates":[-97.76123,30.256,0],"engineType":"CE","exterior":"GOOD","fuel":81,"interior":"GOOD","name":"FGZ 8623","smartPhoneRequired":false,"vin":"WMEEJ3BA4FK802835"},{"address":"5000 Rowena Ave, Austin, TX 78751, USA","coordinates":[-97.72354,30.31472,0],"engineType":"CE","exterior":"GOOD","fuel":66,"interior":"GOOD","name":"FHB 2867","smartPhoneRequired":false,"vin":"WMEEJ3BA3FK802535"},{"address":"104 W N Loop Blvd, Austin, TX 78751, USA","coordinates":[-97.72244,30.31798,0],"engineType":"CE","exterior":"GOOD","fuel":33,"interior":"GOOD","name":"FBV 4430","smartPhoneRequired":false,"vin":"WMEEJ3BA3FK799460"},{"address":"508-598 Oakland Ave, Austin, TX 78703, USA","coordinates":[-97.76083,30.27399,0],"engineType":"CE","exterior":"GOOD","fuel":21,"interior":"GOOD","name":"FHB 2865","smartPhoneRequired":false,"vin":"WMEEJ3BA3FK802468"},{"address":"2000-2200 Dickson Dr, Austin, TX 78704, USA","coordinates":[-97.78057,30.24591,0],"engineType":"CE","exterior":"GOOD","fuel":69,"interior":"GOOD","name":"CSF 9066","smartPhoneRequired":false,"vin":"WMEEJ3BA9EK733235"},{"address":"1507 Treadwell St, Austin, TX 78704, USA","coordinates":[-97.76315,30.25676,0],"engineType":"CE","exterior":"GOOD","fuel":100,"interior":"GOOD","name":"FHB 0200","smartPhoneRequired":false,"vin":"WMEEJ3BA7FK801825"},{"address":"Canopy - 916 Springdale Rd - 3 spaces","coordinates":[-97.69877,30.26219,0],"engineType":"CE","exterior":"GOOD","fuel":36,"interior":"GOOD","name":"FGZ 9139","smartPhoneRequired":false,"vin":"WMEEJ3BA5FK800396"},{"address":"4121-4199 S Industrial Dr, Austin, TX 78744, USA","coordinates":[-97.74256,30.21164,0],"engineType":"CE","exterior":"GOOD","fuel":100,"interior":"GOOD","name":"FBV 4432","smartPhoneRequired":false,"vin":"WMEEJ3BA2FK799417"},{"address":"2510 Elmont Dr, Austin, TX 78741, USA","coordinates":[-97.72152,30.23977,0],"engineType":"CE","exterior":"GOOD","fuel":100,"interior":"GOOD","name":"CSG 1542","smartPhoneRequired":false,"vin":"WMEEJ3BA2EK733240"},{"address":"ACC - Eastview - 3 spaces","coordinates":[-97.70531,30.26726,0],"engineType":"CE","exterior":"GOOD","fuel":69,"interior":"GOOD","name":"GGG 3721","smartPhoneRequired":false,"vin":"WMEEJ3BAXFK801334"},{"address":"2201-2599 Wallingwood Dr, Austin, TX 78746, USA","coordinates":[-97.78245,30.265,0],"engineType":"CE","exterior":"GOOD","fuel":54,"interior":"GOOD","name":"FGZ 8681","smartPhoneRequired":false,"vin":"WMEEJ3BA2FK802719"},{"address":"2324 Hartford Rd, Austin, TX 78703, USA","coordinates":[-97.75903,30.29116,0],"engineType":"CE","exterior":"GOOD","fuel":93,"interior":"GOOD","name":"FBV 4495","smartPhoneRequired":false,"vin":"WMEEJ3BA8FK800408"},{"address":"50-58 East Ave, Austin, TX 78701, USA","coordinates":[-97.73832,30.25718,0],"engineType":"CE","exterior":"GOOD","fuel":48,"interior":"GOOD","name":"FGZ 8628","smartPhoneRequired":false,"vin":"WMEEJ3BA8FK802370"},{"address":"The Parking Spot - 1600 TX-71 - 20 spaces","coordinates":[-97.67597,30.22049,0],"engineType":"CE","exterior":"GOOD","fuel":100,"interior":"GOOD","name":"FBV 4421","smartPhoneRequired":false,"vin":"WMEEJ3BA8FK799809"},{"address":"94 Navasota St, Austin, TX 78702, USA","coordinates":[-97.73068,30.25898,0],"engineType":"CE","exterior":"GOOD","fuel":27,"interior":"GOOD","name":"FBV 4434","smartPhoneRequired":false,"vin":"WMEEJ3BAXFK799388"},{"address":"606 N Lamar Blvd, Austin, TX 78703, USA","coordinates":[-97.75398,30.27184,0],"engineType":"CE","exterior":"GOOD","fuel":54,"interior":"GOOD","name":"FHB 1331","smartPhoneRequired":false,"vin":"WMEEJ3BA8FK801171"},{"address":"1766-1896 Spyglass Dr, Austin, TX 78746, USA","coordinates":[-97.79229,30.25951,0],"engineType":"CE","exterior":"GOOD","fuel":39,"interior":"GOOD","name":"FHB 0204","smartPhoneRequired":false,"vin":"WMEEJ3BA1FK802193"},{"address":"5623 Woodrow Ave, Austin, TX 78756, USA","coordinates":[-97.73294,30.32867,0],"engineType":"CE","exterior":"GOOD","fuel":100,"interior":"GOOD","name":"FBV 4470","smartPhoneRequired":false,"vin":"WMEEJ3BA5FK802424"},{"address":"3213 Lafayette Ave, Austin, TX 78722, USA","coordinates":[-97.71947,30.28854,0],"engineType":"CE","exterior":"GOOD","fuel":78,"interior":"GOOD","name":"FJC 9779","smartPhoneRequired":false,"vin":"WMEEJ3BA0FK802847"},{"address":"2001-2051 E 20th St, Austin, TX 78722, USA","coordinates":[-97.72016,30.28099,0],"engineType":"CE","exterior":"GOOD","fuel":30,"interior":"GOOD","name":"FBV 4356","smartPhoneRequired":false,"vin":"WMEEJ3BA3FK797689"},{"address":"1309 Norwood Rd, Austin, TX 78722, USA","coordinates":[-97.71035,30.30287,0],"engineType":"CE","exterior":"GOOD","fuel":54,"interior":"GOOD","name":"FGZ 8677","smartPhoneRequired":false,"vin":"WMEEJ3BA1FK801948"},{"address":"Arabella - 8515 Shoal Creek Blvd - 2 Spaces","coordinates":[-97.73756,30.37053,0],"engineType":"CE","exterior":"GOOD","fuel":42,"interior":"GOOD","name":"FBV 4372","smartPhoneRequired":false,"vin":"WMEEJ3BA2FK798591"},{"address":"5202-5204 Shoal Creek Blvd, Austin, TX 78756, USA","coordinates":[-97.74538,30.32715,0],"engineType":"CE","exterior":"GOOD","fuel":36,"interior":"GOOD","name":"FBV 4425","smartPhoneRequired":false,"vin":"WMEEJ3BAXFK799584"},{"address":"Holiday Inn Express - 7601 E Ben White - 2 spaces","coordinates":[-97.69288,30.21701,0],"engineType":"CE","exterior":"GOOD","fuel":100,"interior":"GOOD","name":"FBV 4386","smartPhoneRequired":false,"vin":"WMEEJ3BA9FK799544"},{"address":"University Village - 1301 Crossing Pl. - 2 spaces","coordinates":[-97.7118,30.23595,0],"engineType":"CE","exterior":"GOOD","fuel":57,"interior":"GOOD","name":"FJD 0200","smartPhoneRequired":false,"vin":"WMEEJ3BA4FK802866"},{"address":"2705 Rock Terrace Dr, Austin, TX 78704, USA","coordinates":[-97.78493,30.25182,0],"engineType":"CE","exterior":"GOOD","fuel":72,"interior":"GOOD","name":"FBV 4382","smartPhoneRequired":false,"vin":"WMEEJ3BA8FK799325"},{"address":"308 E 35th St, Austin, TX 78705, USA","coordinates":[-97.73207,30.29831,0],"engineType":"CE","exterior":"GOOD","fuel":39,"interior":"GOOD","name":"FBV 4438","smartPhoneRequired":false,"vin":"WMEEJ3BA2FK799286"},{"address":"The Parking Spot - 1600 TX-71 - 20 spaces","coordinates":[-97.67597,30.22049,0],"engineType":"CE","exterior":"GOOD","fuel":96,"interior":"GOOD","name":"FHB 2858","smartPhoneRequired":false,"vin":"WMEEJ3BA3FK801966"},{"address":"604 Driskill St, Austin, TX 78701, USA","coordinates":[-97.73822,30.26116,0],"engineType":"CE","exterior":"GOOD","fuel":54,"interior":"GOOD","name":"FBV 4367","smartPhoneRequired":false,"vin":"WMEEJ3BA4FK799757"},{"address":"The Parking Spot - 1600 TX-71 - 20 spaces","coordinates":[-97.67597,30.22049,0],"engineType":"CE","exterior":"GOOD","fuel":24,"interior":"GOOD","name":"FBV 6124","smartPhoneRequired":false,"vin":"WMEEJ3BA2FK799028"},{"address":"1801 E 51st St, Austin, TX 78723, USA","coordinates":[-97.69918,30.30173,0],"engineType":"CE","exterior":"GOOD","fuel":27,"interior":"GOOD","name":"FHB 1328","smartPhoneRequired":false,"vin":"WMEEJ3BA0FK801701"},{"address":"3505 S Lamar Blvd, Austin, TX 78704, USA","coordinates":[-97.78663,30.23899,0],"engineType":"CE","exterior":"GOOD","fuel":51,"interior":"GOOD","name":"FBV 4359","smartPhoneRequired":false,"vin":"WMEEJ3BA2FK799871"},{"address":"2700 S Lamar Blvd, Austin, TX 78704, USA","coordinates":[-97.78028,30.24525,0],"engineType":"CE","exterior":"GOOD","fuel":33,"interior":"GOOD","name":"CSF 9065","smartPhoneRequired":false,"vin":"WMEEJ3BA0EK734533"},{"address":"3821-3899 Maplewood Ave, Austin, TX 78722, USA","coordinates":[-97.71368,30.29343,0],"engineType":"CE","exterior":"GOOD","fuel":100,"interior":"GOOD","name":"CSF 9192","smartPhoneRequired":false,"vin":"WMEEJ3BA3EK734008"},{"address":"4201 Lullwood Rd, Austin, TX 78722, USA","coordinates":[-97.71396,30.29788,0],"engineType":"CE","exterior":"GOOD","fuel":100,"interior":"GOOD","name":"FGZ 8621","smartPhoneRequired":false,"vin":"WMEEJ3BA3FK802843"},{"address":"1408 Ashwood Rd, Austin, TX 78722, USA","coordinates":[-97.7153,30.29428,0],"engineType":"CE","exterior":"GOOD","fuel":39,"interior":"GOOD","name":"CSF 9069","smartPhoneRequired":false,"vin":"WMEEJ3BA7EK733766"},{"address":"5617-5619 Bull Creek Rd, Austin, TX 78756, USA","coordinates":[-97.74556,30.33351,0],"engineType":"CE","exterior":"GOOD","fuel":27,"interior":"GOOD","name":"CSF 9068","smartPhoneRequired":false,"vin":"WMEEJ3BA0EK733706"},{"address":"Alvin, Austin, TX 78703, USA","coordinates":[-97.77444,30.2795,0],"engineType":"CE","exterior":"GOOD","fuel":39,"interior":"GOOD","name":"FHB 2860","smartPhoneRequired":false,"vin":"WMEEJ3BA3FK802079"},{"address":"1150-1198 Sabine St, Austin, TX 78701, USA","coordinates":[-97.73411,30.27171,0],"engineType":"CE","exterior":"GOOD","fuel":48,"interior":"GOOD","name":"FGZ 8815","smartPhoneRequired":false,"vin":"WMEEJ3BAXFK801544"},{"address":"Capitol Metro - 2910 E 5th St - 3 spaces","coordinates":[-97.70989,30.25624,0],"engineType":"CE","exterior":"GOOD","fuel":33,"interior":"GOOD","name":"FJC 9785","smartPhoneRequired":false,"vin":"WMEEJ3BA3FK802518"},{"address":"Hardrock Canyon - 10300 Jollyville Rd - 2 spaces","coordinates":[-97.75121,30.39674,0],"engineType":"CE","exterior":"GOOD","fuel":57,"interior":"GOOD","name":"FJC 9925","smartPhoneRequired":false,"vin":"WMEEJ3BAXFK800989"},{"address":"1904-1998 Alexander Ave, Austin, TX 78702, USA","coordinates":[-97.70965,30.28249,0],"engineType":"CE","exterior":"GOOD","fuel":75,"interior":"GOOD","name":"FGZ 8615","smartPhoneRequired":false,"vin":"WMEEJ3BA8FK802384"},{"address":"1323 S Congress Ave, Austin, TX 78704, USA","coordinates":[-97.74929,30.25036,0],"engineType":"CE","exterior":"GOOD","fuel":100,"interior":"GOOD","name":"FHB 1681","smartPhoneRequired":false,"vin":"WMEEJ3BA0FK802167"},{"address":"3800-3828 Victory Dr, Austin, TX 78704, USA","coordinates":[-97.7888,30.23788,0],"engineType":"CE","exterior":"GOOD","fuel":36,"interior":"GOOD","name":"FHB 1680","smartPhoneRequired":false,"vin":"WMEEJ3BA6FK802237"},{"address":"4122 S Industrial Dr, Austin, TX 78744, USA","coordinates":[-97.74272,30.21169,0],"engineType":"CE","exterior":"GOOD","fuel":66,"interior":"GOOD","name":"FBV 4381","smartPhoneRequired":false,"vin":"WMEEJ3BA6FK799310"},{"address":"The Highlander Hotel - 2 spaces","coordinates":[-97.7096,30.32477,0],"engineType":"CE","exterior":"GOOD","fuel":90,"interior":"GOOD","name":"FGZ 8813","smartPhoneRequired":false,"vin":"WMEEJ3BA8FK802417"},{"address":"4601-4603 Shoal Creek Blvd, Austin, TX 78756, USA","coordinates":[-97.74502,30.31907,0],"engineType":"CE","exterior":"GOOD","fuel":100,"interior":"GOOD","name":"FGZ 8804","smartPhoneRequired":false,"vin":"WMEEJ3BA6FK800374"},{"address":"1311 Holly St, Austin, TX 78702, USA","coordinates":[-97.73265,30.25571,0],"engineType":"CE","exterior":"GOOD","fuel":33,"interior":"GOOD","name":"CSG 2238","smartPhoneRequired":false,"vin":"WMEEJ3BA1EK734993"},{"address":"2239 Cromwell Cir, Austin, TX 78741, USA","coordinates":[-97.7188,30.22993,0],"engineType":"CE","exterior":"GOOD","fuel":84,"interior":"GOOD","name":"FJC 9784","smartPhoneRequired":false,"vin":"WMEEJ3BA9FK802605"},{"address":"4122 S Industrial Dr, Austin, TX 78744, USA","coordinates":[-97.74286,30.21146,0],"engineType":"CE","exterior":"GOOD","fuel":48,"interior":"GOOD","name":"FBV 4468","smartPhoneRequired":false,"vin":"WMEEJ3BA2FK802378"},{"address":"Stassney Woods - 1800 E Stassney Lane - 2 Spaces","coordinates":[-97.76106,30.19733,0],"engineType":"CE","exterior":"GOOD","fuel":100,"interior":"GOOD","name":"CSF 8933","smartPhoneRequired":false,"vin":"WMEEJ3BA9EK734790"},{"address":"61-67 Anthony St, Austin, TX 78702, USA","coordinates":[-97.72361,30.2527,0],"engineType":"CE","exterior":"GOOD","fuel":33,"interior":"GOOD","name":"FHB 1677","smartPhoneRequired":false,"vin":"WMEEJ3BA0FK802461"},{"address":"1305 Summer Oak Dr, Austin, TX 78704, USA","coordinates":[-97.77845,30.23086,0],"engineType":"CE","exterior":"GOOD","fuel":100,"interior":"GOOD","name":"FBV 4360","smartPhoneRequired":false,"vin":"WMEEJ3BA0FK799920"},{"address":"1601 Mariposa Dr, Austin, TX 78741, USA","coordinates":[-97.73764,30.23648,0],"engineType":"CE","exterior":"GOOD","fuel":96,"interior":"GOOD","name":"CSF 8920","smartPhoneRequired":false,"vin":"WMEEJ3BA8EK733792"},{"address":"The Parking Spot - 1600 TX-71 - 20 spaces","coordinates":[-97.67597,30.22049,0],"engineType":"CE","exterior":"GOOD","fuel":66,"interior":"GOOD","name":"FFD 7834","smartPhoneRequired":false,"vin":"WMEEJ3BA7FK803221"},{"address":"3 Childress, Austin, TX 78703, USA","coordinates":[-97.77653,30.27967,0],"engineType":"CE","exterior":"GOOD","fuel":18,"interior":"GOOD","name":"FTD 8882","smartPhoneRequired":false,"vin":"WMEEJ3BA2FK802980"},{"address":"63 Lynn St, Austin, TX 78702, USA","coordinates":[-97.72468,30.25367,0],"engineType":"CE","exterior":"GOOD","fuel":42,"interior":"GOOD","name":"CSF 9061","smartPhoneRequired":false,"vin":"WMEEJ3BA1EK733018"},{"address":"1700-1706 Garner Ave, Austin, TX 78704, USA","coordinates":[-97.77016,30.2537,0],"engineType":"CE","exterior":"GOOD","fuel":36,"interior":"GOOD","name":"JHD 8490","smartPhoneRequired":true,"vin":"WDCTG4GB5HJ334872"},{"address":"2314 Wickersham Ln, Austin, TX 78741, USA","coordinates":[-97.72183,30.22794,0],"engineType":"CE","exterior":"GOOD","fuel":96,"interior":"GOOD","name":"FBV 4474","smartPhoneRequired":false,"vin":"WMEEJ3BA1FK802940"},{"address":"2402 Pearl St, Austin, TX 78705, USA","coordinates":[-97.7467,30.28895,0],"engineType":"CE","exterior":"GOOD","fuel":50,"interior":"GOOD","name":"JHD 8484","smartPhoneRequired":true,"vin":"WDCTG4GB4HJ335995"},{"address":"2113 S Lamar Blvd, Austin, TX 78704, USA","coordinates":[-97.77094,30.24792,0],"engineType":"CE","exterior":"GOOD","fuel":84,"interior":"GOOD","name":"JHD 8483","smartPhoneRequired":true,"vin":"WDCTG4GBXHJ335984"},{"address":"507-541 Onion St, Austin, TX 78702, USA","coordinates":[-97.72781,30.26275,0],"engineType":"CE","exterior":"GOOD","fuel":84,"interior":"GOOD","name":"FBV 4377","smartPhoneRequired":false,"vin":"WMEEJ3BA6FK800035"},{"address":"1707 Whitney Way, Austin, TX 78741, USA","coordinates":[-97.71038,30.23095,0],"engineType":"CE","exterior":"GOOD","fuel":44,"interior":"GOOD","name":"JHD 8502","smartPhoneRequired":true,"vin":"WDDSJ4EB9HN466232"},{"address":"3205 Clawson Rd, Austin, TX 78704, USA","coordinates":[-97.77755,30.23806,0],"engineType":"CE","exterior":"GOOD","fuel":76,"interior":"GOOD","name":"JHD 8501","smartPhoneRequired":true,"vin":"WDDSJ4EB9HN466554"},{"address":"2201-2599 Wallingwood Dr, Austin, TX 78746, USA","coordinates":[-97.78259,30.26495,0],"engineType":"CE","exterior":"GOOD","fuel":84,"interior":"GOOD","name":"JHD 8514","smartPhoneRequired":true,"vin":"WDDSJ4EB9HN466019"},{"address":"704 W Monroe St, Austin, TX 78704, USA","coordinates":[-97.7569,30.25005,0],"engineType":"CE","exterior":"GOOD","fuel":26,"interior":"GOOD","name":"JHD 8521","smartPhoneRequired":true,"vin":"WDDSJ4EB9HN465842"},{"address":"5504 Evans Ave, Austin, TX 78751, USA","coordinates":[-97.71597,30.31855,0],"engineType":"CE","exterior":"GOOD","fuel":40,"interior":"GOOD","name":"JHD 8513","smartPhoneRequired":true,"vin":"WDDSJ4EB6HN466110"},{"address":"1806-1808 W 10th St, Austin, TX 78703, USA","coordinates":[-97.76462,30.28132,0],"engineType":"CE","exterior":"GOOD","fuel":100,"interior":"GOOD","name":"FJC 9598","smartPhoneRequired":false,"vin":"WMEEJ3BA6FK801797"},{"address":"300 San Antonio St, Austin, TX 78701, USA","coordinates":[-97.74811,30.2667,0],"engineType":"CE","exterior":"GOOD","fuel":96,"interior":"GOOD","name":"FJD 0198","smartPhoneRequired":false,"vin":"WMEEJ3BA8FK802899"},{"address":"1807-1809 Maple Ave, Austin, TX 78702, USA","coordinates":[-97.7161,30.27999,0],"engineType":"CE","exterior":"GOOD","fuel":8,"interior":"GOOD","name":"JHD 8519","smartPhoneRequired":true,"vin":"WDDSJ4EB7HN466844"},{"address":"1601-1617 E 6th St, Austin, TX 78702, USA","coordinates":[-97.72568,30.26268,0],"engineType":"CE","exterior":"GOOD","fuel":14,"interior":"GOOD","name":"JHD 8511","smartPhoneRequired":true,"vin":"WDDSJ4EB7HN466889"},{"address":"West Tower Village - 4532 West Gate Blvd - 1 space","coordinates":[-97.80175,30.23107,0],"engineType":"CE","exterior":"GOOD","fuel":48,"interior":"GOOD","name":"JHD 8499","smartPhoneRequired":true,"vin":"WDDSJ4EB3HN466839"},{"address":"1506 E Cesar Chavez St, Austin, TX 78702, USA","coordinates":[-97.72879,30.25904,0],"engineType":"CE","exterior":"GOOD","fuel":10,"interior":"GOOD","name":"JHD 8510","smartPhoneRequired":true,"vin":"WDDSJ4EB9HN467851"},{"address":"2201-2599 Wallingwood Dr, Austin, TX 78746, USA","coordinates":[-97.78282,30.26489,0],"engineType":"CE","exterior":"GOOD","fuel":34,"interior":"GOOD","name":"JHD 8520","smartPhoneRequired":true,"vin":"WDDSJ4EB4HN466090"},{"address":"10 Sheringham Dr, Austin, TX 78741, USA","coordinates":[-97.72491,30.23102,0],"engineType":"CE","exterior":"GOOD","fuel":81,"interior":"GOOD","name":"FBV 4494","smartPhoneRequired":false,"vin":"WMEEJ3BA3FK802311"},{"address":"State House on Congress - 2 spaces","coordinates":[-97.74874,30.25119,0],"engineType":"CE","exterior":"GOOD","fuel":86,"interior":"GOOD","name":"JHD 8488","smartPhoneRequired":true,"vin":"WDCTG4GB4HJ336659"},{"address":"5506 Blue Bird Ln, Austin, TX 78745, USA","coordinates":[-97.77699,30.20674,0],"engineType":"CE","exterior":"GOOD","fuel":90,"interior":"GOOD","name":"JHD 8487","smartPhoneRequired":true,"vin":"WDCTG4GB5HJ336069"},{"address":"Canopy - 916 Springdale Rd - 3 spaces","coordinates":[-97.69877,30.26219,0],"engineType":"CE","exterior":"GOOD","fuel":94,"interior":"GOOD","name":"JHD 8548","smartPhoneRequired":true,"vin":"WDCTG4GB5HJ336878"},{"address":"2033-2229 Anchor Ln, Austin, TX 78723, USA","coordinates":[-97.70356,30.28856,0],"engineType":"CE","exterior":"GOOD","fuel":100,"interior":"GOOD","name":"CSG 1518","smartPhoneRequired":false,"vin":"WMEEJ3BA3EK734896"},{"address":"Cuvee Coffee Bar - 2000 E 6th St - 2 spaces","coordinates":[-97.72133,30.26137,0],"engineType":"CE","exterior":"GOOD","fuel":44,"interior":"GOOD","name":"JHD 8563","smartPhoneRequired":true,"vin":"WDCTG4GB6HJ336761"},{"address":"2249 Zach Scott St, Austin, TX 78723, USA","coordinates":[-97.70138,30.29425,0],"engineType":"CE","exterior":"GOOD","fuel":28,"interior":"GOOD","name":"JHD 8496","smartPhoneRequired":true,"vin":"WDCTG4GB8HJ337104"},{"address":"Retreat at Barton Creek - 3816 S Lamar Blvd","coordinates":[-97.79195,30.23758,0],"engineType":"CE","exterior":"GOOD","fuel":88,"interior":"GOOD","name":"JHD 8505","smartPhoneRequired":true,"vin":"WDCTG4GB1HJ337011"},{"address":"2602-2604 Cedarview Dr, Austin, TX 78704, USA","coordinates":[-97.78474,30.25005,0],"engineType":"CE","exterior":"GOOD","fuel":100,"interior":"GOOD","name":"FHB 2832","smartPhoneRequired":false,"vin":"WMEEJ3BA9FK801907"},{"address":"2311 Rebel Rd, Austin, TX 78704, USA","coordinates":[-97.75021,30.23736,0],"engineType":"CE","exterior":"GOOD","fuel":30,"interior":"GOOD","name":"FJD 0193","smartPhoneRequired":false,"vin":"WMEEJ3BA5FK802133"},{"address":"The Parking Spot - 1600 TX-71 - 20 spaces","coordinates":[-97.67597,30.22049,0],"engineType":"CE","exterior":"GOOD","fuel":48,"interior":"GOOD","name":"CSG 1544","smartPhoneRequired":false,"vin":"WMEEJ3BA6EK734861"},{"address":"1314 Willow St, Austin, TX 78702, USA","coordinates":[-97.73108,30.2585,0],"engineType":"CE","exterior":"GOOD","fuel":78,"interior":"GOOD","name":"FGZ 8616","smartPhoneRequired":false,"vin":"WMEEJ3BA3FK802406"},{"address":"906-908 Jessie St, Austin, TX 78704, USA","coordinates":[-97.76289,30.25719,0],"engineType":"CE","exterior":"GOOD","fuel":100,"interior":"GOOD","name":"CSF 8931","smartPhoneRequired":false,"vin":"WMEEJ3BA9EK733784"},{"address":"4459-4507 Eilers Ave, Austin, TX 78751, USA","coordinates":[-97.72188,30.30634,0],"engineType":"CE","exterior":"GOOD","fuel":100,"interior":"GOOD","name":"FHB 0202","smartPhoneRequired":false,"vin":"WMEEJ3BA6FK802271"},{"address":"2610-2612 Friar Tuck Ln, Austin, TX 78704, USA","coordinates":[-97.75181,30.23369,0],"engineType":"CE","exterior":"GOOD","fuel":39,"interior":"GOOD","name":"FGZ 8682","smartPhoneRequired":false,"vin":"WMEEJ3BA2FK802896"},{"address":"900 Nile St, Austin, TX 78702, USA","coordinates":[-97.71169,30.26622,0],"engineType":"CE","exterior":"GOOD","fuel":33,"interior":"GOOD","name":"CSF 8935","smartPhoneRequired":false,"vin":"WMEEJ3BA5EK734592"},{"address":"3216-3266 Clawson Rd, Austin, TX 78704, USA","coordinates":[-97.77819,30.23719,0],"engineType":"CE","exterior":"GOOD","fuel":63,"interior":"GOOD","name":"FJC 9782","smartPhoneRequired":false,"vin":"WMEEJ3BA4FK802690"},{"address":"2030-2046 Lou Neff Rd, Austin, TX 78746, USA","coordinates":[-97.76562,30.26638,0],"engineType":"CE","exterior":"GOOD","fuel":66,"interior":"GOOD","name":"FHB 0205","smartPhoneRequired":false,"vin":"WMEEJ3BA9FK802183"},{"address":"210-246 Lee Barton Dr, Austin, TX 78704, USA","coordinates":[-97.75708,30.26269,0],"engineType":"CE","exterior":"GOOD","fuel":48,"interior":"GOOD","name":"CSF 9074","smartPhoneRequired":false,"vin":"WMEEJ3BA8EK732979"},{"address":"The Parking Spot - 1600 TX-71 - 20 spaces","coordinates":[-97.67597,30.22049,0],"engineType":"CE","exterior":"GOOD","fuel":57,"interior":"GOOD","name":"FBV 4390","smartPhoneRequired":false,"vin":"WMEEJ3BA1FK799294"},{"address":"800 Herndon Ln, Austin, TX 78704, USA","coordinates":[-97.76306,30.24026,0],"engineType":"CE","exterior":"GOOD","fuel":57,"interior":"GOOD","name":"FHB 0201","smartPhoneRequired":false,"vin":"WMEEJ3BA9FK802121"},{"address":"4600 W Guadalupe St, Austin, TX 78751, USA","coordinates":[-97.73257,30.31399,0],"engineType":"CE","exterior":"GOOD","fuel":90,"interior":"GOOD","name":"CSF 8925","smartPhoneRequired":false,"vin":"WMEEJ3BA6EK735329"},{"address":"2254 Dickson Dr, Austin, TX 78704, USA","coordinates":[-97.78088,30.24613,0],"engineType":"CE","exterior":"GOOD","fuel":96,"interior":"GOOD","name":"FHB 1336","smartPhoneRequired":false,"vin":"WMEEJ3BA0FK800404"},{"address":"3501-3503 Lafayette Ave, Austin, TX 78722, USA","coordinates":[-97.71738,30.29172,0],"engineType":"CE","exterior":"GOOD","fuel":27,"interior":"GOOD","name":"CSF 9200","smartPhoneRequired":false,"vin":"WMEEJ3BA4EK734941"},{"address":"1902 New York Ave, Austin, TX 78702, USA","coordinates":[-97.7193,30.27284,0],"engineType":"CE","exterior":"GOOD","fuel":100,"interior":"GOOD","name":"FJC 9791","smartPhoneRequired":false,"vin":"WMEEJ3BA0FK802055"},{"address":"4122 S Industrial Dr, Austin, TX 78744, USA","coordinates":[-97.74272,30.21172,0],"engineType":"CE","exterior":"GOOD","fuel":15,"interior":"GOOD","name":"FBV 4389","smartPhoneRequired":false,"vin":"WMEEJ3BA0FK799335"},{"address":"2115 Brooklyn St, Austin, TX 78704, USA","coordinates":[-97.7485,30.24049,0],"engineType":"CE","exterior":"GOOD","fuel":30,"interior":"GOOD","name":"CSF 8929","smartPhoneRequired":false,"vin":"WMEEJ3BA9EK733333"},{"address":"1112 West Ave, Austin, TX 78701, USA","coordinates":[-97.74861,30.27577,0],"engineType":"CE","exterior":"GOOD","fuel":100,"interior":"GOOD","name":"FHB 2831","smartPhoneRequired":false,"vin":"WMEEJ3BA9FK801051"},{"address":"1814 E 6th St, Austin, TX 78702, USA","coordinates":[-97.72292,30.26187,0],"engineType":"CE","exterior":"GOOD","fuel":100,"interior":"GOOD","name":"FJC 9934","smartPhoneRequired":false,"vin":"WMEEJ3BA2FK801568"},{"address":"1816 TX-343 Loop, Austin, TX 78704, USA","coordinates":[-97.76723,30.24994,0],"engineType":"CE","exterior":"GOOD","fuel":90,"interior":"GOOD","name":"FFD 6224","smartPhoneRequired":false,"vin":"WMEEJ3BA6FK801606"},{"address":"1712 E 5th St, Austin, TX 78702, USA","coordinates":[-97.72377,30.26113,0],"engineType":"CE","exterior":"GOOD","fuel":24,"interior":"GOOD","name":"FGZ 8800","smartPhoneRequired":false,"vin":"WMEEJ3BA1FK801576"},{"address":"1300 Garner Ave, Austin, TX 78704, USA","coordinates":[-97.76835,30.25576,0],"engineType":"CE","exterior":"GOOD","fuel":48,"interior":"GOOD","name":"FHB 2869","smartPhoneRequired":false,"vin":"WMEEJ3BAXFK802600"},{"address":"1200-1298 Alexander Ave, Austin, TX 78702, USA","coordinates":[-97.70836,30.27613,0],"engineType":"CE","exterior":"GOOD","fuel":12,"interior":"GOOD","name":"FHB 2827","smartPhoneRequired":false,"vin":"WMEEJ3BA9FK802670"},{"address":"2900 Westhill Dr, Austin, TX 78704, USA","coordinates":[-97.7843,30.24575,0],"engineType":"CE","exterior":"GOOD","fuel":33,"interior":"GOOD","name":"FHB 2898","smartPhoneRequired":false,"vin":"WMEEJ3BA3FK799989"},{"address":"1817 E 12th St, Austin, TX 78702, USA","coordinates":[-97.7202,30.27343,0],"engineType":"CE","exterior":"GOOD","fuel":42,"interior":"GOOD","name":"FHB 1330","smartPhoneRequired":false,"vin":"WMEEJ3BA9FK801664"},{"address":"4122 S Industrial Dr, Austin, TX 78744, USA","coordinates":[-97.74298,30.21123,0],"engineType":"CE","exterior":"GOOD","fuel":54,"interior":"GOOD","name":"FBV 4467","smartPhoneRequired":false,"vin":"WMEEJ3BA7FK801727"},{"address":"800 W 5th St, Austin, TX 78703, USA","coordinates":[-97.75126,30.2695,0],"engineType":"CE","exterior":"GOOD","fuel":90,"interior":"GOOD","name":"FGZ 8812","smartPhoneRequired":false,"vin":"WMEEJ3BA9FK802345"},{"address":"2105 Stephen F Austin Dr, Austin, TX 78703, USA","coordinates":[-97.7697,30.27438,0],"engineType":"CE","exterior":"GOOD","fuel":69,"interior":"GOOD","name":"FGZ 8678","smartPhoneRequired":false,"vin":"WMEEJ3BA7FK802036"},{"address":"500 W 46th St, Austin, TX 78751, USA","coordinates":[-97.73285,30.31357,0],"engineType":"CE","exterior":"GOOD","fuel":72,"interior":"GOOD","name":"FGZ 8612","smartPhoneRequired":false,"vin":"WMEEJ3BA6FK800455"},{"address":"1201-1205 Harvey St, Austin, TX 78702, USA","coordinates":[-97.7044,30.27667,0],"engineType":"CE","exterior":"GOOD","fuel":57,"interior":"GOOD","name":"CSF 8919","smartPhoneRequired":false,"vin":"WMEEJ3BA0EK733883"},{"address":"1400A S Congress Ave, Austin, TX 78704, USA","coordinates":[-97.74977,30.24966,0],"engineType":"CE","exterior":"GOOD","fuel":66,"interior":"GOOD","name":"FGZ 8809","smartPhoneRequired":false,"vin":"WMEEJ3BA8FK802093"},{"address":"The Parking Spot - 1600 TX-71 - 20 spaces","coordinates":[-97.67597,30.22049,0],"engineType":"CE","exterior":"GOOD","fuel":93,"interior":"GOOD","name":"HPD 7169","smartPhoneRequired":false,"vin":"WMEEJ3BA3EK735465"},{"address":"2223-2237 Webberville Rd, Austin, TX 78702, USA","coordinates":[-97.71621,30.26204,0],"engineType":"CE","exterior":"GOOD","fuel":100,"interior":"GOOD","name":"FBV 4368","smartPhoneRequired":false,"vin":"WMEEJ3BA8FK799213"},{"address":"2550-2570 Anken Dr, Austin, TX 78741, USA","coordinates":[-97.72683,30.22999,0],"engineType":"CE","exterior":"GOOD","fuel":100,"interior":"GOOD","name":"FGZ 8805","smartPhoneRequired":false,"vin":"WMEEJ3BA7FK800304"},{"address":"4000-4054 Run of the Oaks St, Austin, TX 78704, USA","coordinates":[-97.77903,30.23048,0],"engineType":"CE","exterior":"GOOD","fuel":57,"interior":"GOOD","name":"FBV 4391","smartPhoneRequired":false,"vin":"WMEEJ3BA0FK799271"},{"address":"Intel Campus - 1300 S Mopac Expy - 2 Spaces","coordinates":[-97.79249,30.26267,0],"engineType":"CE","exterior":"GOOD","fuel":93,"interior":"GOOD","name":"FBV 4354","smartPhoneRequired":false,"vin":"WMEEJ3BA2FK799496"},{"address":"506 W 46th St, Austin, TX 78705, USA","coordinates":[-97.73467,30.31429,0],"engineType":"CE","exterior":"GOOD","fuel":87,"interior":"GOOD","name":"FBV 4393","smartPhoneRequired":false,"vin":"WMEEJ3BA2FK799241"},{"address":"1781 Spyglass Dr, Austin, TX 78746, USA","coordinates":[-97.79303,30.25991,0],"engineType":"CE","exterior":"GOOD","fuel":60,"interior":"GOOD","name":"FGZ 8617","smartPhoneRequired":false,"vin":"WMEEJ3BA0FK802525"},{"address":"607 E 50th St, Austin, TX 78751, USA","coordinates":[-97.71932,30.3125,0],"engineType":"CE","exterior":"GOOD","fuel":78,"interior":"GOOD","name":"FHB 0248","smartPhoneRequired":false,"vin":"WMEEJ3BA6FK802643"},{"address":"1807 Salina St, Austin, TX 78702, USA","coordinates":[-97.72211,30.27939,0],"engineType":"CE","exterior":"GOOD","fuel":57,"interior":"GOOD","name":"FHB 1327","smartPhoneRequired":false,"vin":"WMEEJ3BAXFK801754"},{"address":"1205 W Gibson St, Austin, TX 78704, USA","coordinates":[-97.76138,30.25456,0],"engineType":"CE","exterior":"GOOD","fuel":60,"interior":"GOOD","name":"GGG 3720","smartPhoneRequired":false,"vin":"WMEEJ3BA4FK801474"},{"address":"2600-2700 Northland Dr, Austin, TX 78756, USA","coordinates":[-97.74808,30.33444,0],"engineType":"CE","exterior":"GOOD","fuel":60,"interior":"GOOD","name":"FBV 4364","smartPhoneRequired":false,"vin":"WMEEJ3BA5FK799606"},{"address":"Ballpark South - 4700 E Riverside Dr - 2 spaces","coordinates":[-97.71844,30.23231,0],"engineType":"CE","exterior":"GOOD","fuel":33,"interior":"GOOD","name":"FBV 4422","smartPhoneRequired":false,"vin":"WMEEJ3BA5FK799802"},{"address":"Ascent Arboretum - Garage 1st Floor - 2 spaces","coordinates":[-97.73858,30.3922,0],"engineType":"CE","exterior":"GOOD","fuel":66,"interior":"GOOD","name":"FBV 4384","smartPhoneRequired":false,"vin":"WMEEJ3BA8FK799440"},{"address":"2033-2229 Anchor Ln, Austin, TX 78723, USA","coordinates":[-97.70317,30.28819,0],"engineType":"CE","exterior":"GOOD","fuel":15,"interior":"GOOD","name":"FHB 2829","smartPhoneRequired":false,"vin":"WMEEJ3BA9FK802796"},{"address":"Holiday Inn Express - 7601 E Ben White - 2 spaces","coordinates":[-97.69288,30.21701,0],"engineType":"CE","exterior":"GOOD","fuel":54,"interior":"GOOD","name":"FBV 4371","smartPhoneRequired":false,"vin":"WMEEJ3BAXFK798502"},{"address":"4314 Ramsey Ave, Austin, TX 78756, USA","coordinates":[-97.74438,30.31473,0],"engineType":"CE","exterior":"GOOD","fuel":60,"interior":"GOOD","name":"CSF 8923","smartPhoneRequired":false,"vin":"WMEEJ3BA0EK734600"},{"address":"3708 Harmon Ave, Austin, TX 78705, USA","coordinates":[-97.72118,30.29458,0],"engineType":"CE","exterior":"GOOD","fuel":60,"interior":"GOOD","name":"FJC 9939","smartPhoneRequired":false,"vin":"WMEEJ3BAXFK801916"},{"address":"1500-1628 Crossing Pl, Austin, TX 78741, USA","coordinates":[-97.71523,30.23506,0],"engineType":"CE","exterior":"GOOD","fuel":96,"interior":"GOOD","name":"FBV 4433","smartPhoneRequired":false,"vin":"WMEEJ3BAXFK799391"},{"address":"The Parking Spot - 1600 TX-71 - 20 spaces","coordinates":[-97.67597,30.22049,0],"engineType":"CE","exterior":"GOOD","fuel":100,"interior":"GOOD","name":"FJC 9783","smartPhoneRequired":false,"vin":"WMEEJ3BA3FK802678"},{"address":"1817 E 12th St, Austin, TX 78702, USA","coordinates":[-97.72014,30.27344,0],"engineType":"CE","exterior":"GOOD","fuel":24,"interior":"GOOD","name":"FGZ 8679","smartPhoneRequired":false,"vin":"WMEEJ3BA8FK802336"},{"address":"ATX North Apts - 2101 W Anderson - 2 spaces","coordinates":[-97.72826,30.35369,0],"engineType":"CE","exterior":"GOOD","fuel":36,"interior":"GOOD","name":"FJD 0195","smartPhoneRequired":false,"vin":"WMEEJ3BA6FK801721"},{"address":"600-688 Dawson Rd, Austin, TX 78704, USA","coordinates":[-97.75626,30.25896,0],"engineType":"CE","exterior":"GOOD","fuel":36,"interior":"GOOD","name":"CSG 1543","smartPhoneRequired":false,"vin":"WMEEJ3BA7EK734643"},{"address":"800-900 E 9th St, Austin, TX 78702, USA","coordinates":[-97.73236,30.26821,0],"engineType":"CE","exterior":"GOOD","fuel":66,"interior":"GOOD","name":"FHB 1335","smartPhoneRequired":false,"vin":"WMEEJ3BAXFK800510"},{"address":"P. Terry's Capital Plaza - 5701 N IH-35 - 1 space","coordinates":[-97.70679,30.31699,0],"engineType":"CE","exterior":"GOOD","fuel":100,"interior":"GOOD","name":"HTL 5352","smartPhoneRequired":false,"vin":"WMEEJ3BAXFK800765"},{"address":"500 W 43rd St, Austin, TX 78751, USA","coordinates":[-97.73357,30.30828,0],"engineType":"CE","exterior":"GOOD","fuel":72,"interior":"GOOD","name":"FHB 2828","smartPhoneRequired":false,"vin":"WMEEJ3BA6FK802772"},{"address":"Retreat at Barton Creek - 3816 S Lamar Blvd","coordinates":[-97.79195,30.23758,0],"engineType":"CE","exterior":"GOOD","fuel":15,"interior":"GOOD","name":"FBV 4361","smartPhoneRequired":false,"vin":"WMEEJ3BA6FK799503"},{"address":"50-58 East Ave, Austin, TX 78701, USA","coordinates":[-97.73834,30.25714,0],"engineType":"CE","exterior":"GOOD","fuel":75,"interior":"GOOD","name":"FGZ 8627","smartPhoneRequired":false,"vin":"WMEEJ3BA4FK802477"},{"address":"West Tower Village - 4532 West Gate Blvd - 1 space","coordinates":[-97.80175,30.23107,0],"engineType":"CE","exterior":"GOOD","fuel":86,"interior":"GOOD","name":"JHD 8794","smartPhoneRequired":true,"vin":"WDCTG4GB4HJ336886"},{"address":"2108 Holly St, Austin, TX 78702, USA","coordinates":[-97.72291,30.25236,0],"engineType":"CE","exterior":"GOOD","fuel":60,"interior":"GOOD","name":"CSF 9071","smartPhoneRequired":false,"vin":"WMEEJ3BAXEK734569"},{"address":"551-599 Attayac St, Austin, TX 78702, USA","coordinates":[-97.72957,30.26379,0],"engineType":"CE","exterior":"GOOD","fuel":100,"interior":"GOOD","name":"FHB 2830","smartPhoneRequired":false,"vin":"WMEEJ3BAXFK800670"},{"address":"Canopy - 916 Springdale Rd - 3 spaces","coordinates":[-97.69877,30.26219,0],"engineType":"CE","exterior":"GOOD","fuel":84,"interior":"GOOD","name":"FBV 4369","smartPhoneRequired":false,"vin":"WMEEJ3BA7FK799204"},{"address":"200-296 W Elizabeth St, Austin, TX 78704, USA","coordinates":[-97.75125,30.24933,0],"engineType":"CE","exterior":"GOOD","fuel":63,"interior":"GOOD","name":"FBV 4380","smartPhoneRequired":false,"vin":"WMEEJ3BA7FK799283"},{"address":"1804-1898 Salina St, Austin, TX 78702, USA","coordinates":[-97.72213,30.27907,0],"engineType":"CE","exterior":"GOOD","fuel":42,"interior":"GOOD","name":"CSG 1520","smartPhoneRequired":false,"vin":"WMEEJ3BA2EK735456"},{"address":"602-698 Onion St, Austin, TX 78702, USA","coordinates":[-97.72727,30.26408,0],"engineType":"CE","exterior":"GOOD","fuel":100,"interior":"GOOD","name":"CSF 8927","smartPhoneRequired":false,"vin":"WMEEJ3BA1EK734332"},{"address":"2030-2046 Lou Neff Rd, Austin, TX 78746, USA","coordinates":[-97.76601,30.2664,0],"engineType":"CE","exterior":"GOOD","fuel":96,"interior":"GOOD","name":"CSF 8924","smartPhoneRequired":false,"vin":"WMEEJ3BA1EK733228"},{"address":"1742-1800 E 6th St, Austin, TX 78702, USA","coordinates":[-97.72392,30.26222,0],"engineType":"CE","exterior":"GOOD","fuel":78,"interior":"GOOD","name":"JHD 8494","smartPhoneRequired":true,"vin":"WDCTG4GB6HJ334301"},{"address":"2718-2726 E 5th St, Austin, TX 78702, USA","coordinates":[-97.71139,30.25675,0],"engineType":"CE","exterior":"GOOD","fuel":100,"interior":"GOOD","name":"FGZ 8803","smartPhoneRequired":false,"vin":"WMEEJ3BA5FK801483"},{"address":"1000-1098 W 42nd St, Austin, TX 78756, USA","coordinates":[-97.74086,30.31038,0],"engineType":"CE","exterior":"GOOD","fuel":100,"interior":"GOOD","name":"CSF 9195","smartPhoneRequired":false,"vin":"WMEEJ3BA4EK734809"},{"address":"4314 Ramsey Ave, Austin, TX 78756, USA","coordinates":[-97.74439,30.31475,0],"engineType":"CE","exterior":"GOOD","fuel":57,"interior":"GOOD","name":"FHB 2857","smartPhoneRequired":false,"vin":"WMEEJ3BA5FK801418"},{"address":"1300 Southport Dr, Austin, TX 78704, USA","coordinates":[-97.77546,30.23249,0],"engineType":"CE","exterior":"GOOD","fuel":60,"interior":"GOOD","name":"FJD 0197","smartPhoneRequired":false,"vin":"WMEEJ3BA2FK803045"},{"address":"3411-3413 Werner Ave, Austin, TX 78722, USA","coordinates":[-97.71861,30.29132,0],"engineType":"CE","exterior":"GOOD","fuel":69,"interior":"GOOD","name":"HZJ 9606","smartPhoneRequired":false,"vin":"WMEEJ3BA9FK801650"},{"address":"1700-1798 Burton Dr, Austin, TX 78741, USA","coordinates":[-97.72767,30.23738,0],"engineType":"CE","exterior":"GOOD","fuel":100,"interior":"GOOD","name":"FGZ 8626","smartPhoneRequired":false,"vin":"WMEEJ3BA6FK802495"},{"address":"Ballpark South - 4700 E Riverside Dr - 2 spaces","coordinates":[-97.71844,30.23231,0],"engineType":"CE","exterior":"GOOD","fuel":39,"interior":"GOOD","name":"FBV 4475","smartPhoneRequired":false,"vin":"WMEEJ3BA0FK803125"},{"address":"1157 Coleto St, Austin, TX 78702, USA","coordinates":[-97.71612,30.27041,0],"engineType":"CE","exterior":"GOOD","fuel":68,"interior":"GOOD","name":"JHD 8498","smartPhoneRequired":true,"vin":"WDDSJ4EB4HN468888"},{"address":"1601-1617 E 6th St, Austin, TX 78702, USA","coordinates":[-97.72598,30.26278,0],"engineType":"CE","exterior":"GOOD","fuel":100,"interior":"GOOD","name":"FBV 4366","smartPhoneRequired":false,"vin":"WMEEJ3BA0FK799741"},{"address":"1347-1399 Lamar Square Dr, Austin, TX 78704, USA","coordinates":[-97.76338,30.2544,0],"engineType":"CE","exterior":"GOOD","fuel":42,"interior":"GOOD","name":"FJC 9932","smartPhoneRequired":false,"vin":"WMEEJ3BA0FK801441"},{"address":"2884-3004 Parker Ln, Austin, TX 78741, USA","coordinates":[-97.74185,30.22529,0],"engineType":"CE","exterior":"GOOD","fuel":57,"interior":"GOOD","name":"FHB 1332","smartPhoneRequired":false,"vin":"WMEEJ3BAXFK801057"},{"address":"5310-5312 Avenue F, Austin, TX 78751, USA","coordinates":[-97.72055,30.31862,0],"engineType":"CE","exterior":"GOOD","fuel":8,"interior":"GOOD","name":"JHD 8506","smartPhoneRequired":true,"vin":"WDDSJ4EB1HN467956"},{"address":"3407 Cedar St, Austin, TX 78705, USA","coordinates":[-97.73587,30.29911,0],"engineType":"CE","exterior":"GOOD","fuel":100,"interior":"GOOD","name":"FBV 4378","smartPhoneRequired":false,"vin":"WMEEJ3BA3FK799197"},{"address":"5425 Burnet Rd, Austin, TX 78756, USA","coordinates":[-97.73978,30.3292,0],"engineType":"CE","exterior":"GOOD","fuel":9,"interior":"GOOD","name":"FHB 0203","smartPhoneRequired":false,"vin":"WMEEJ3BA6FK802268"},{"address":"412 W St Elmo Rd, Austin, TX 78745, USA","coordinates":[-97.77119,30.22042,0],"engineType":"CE","exterior":"GOOD","fuel":69,"interior":"GOOD","name":"FBV 4471","smartPhoneRequired":false,"vin":"WMEEJ3BA1FK802551"},{"address":"Ascent Arboretum - Garage 1st Floor - 2 spaces","coordinates":[-97.73858,30.3922,0],"engineType":"CE","exterior":"GOOD","fuel":12,"interior":"GOOD","name":"FJC 9930","smartPhoneRequired":false,"vin":"WMEEJ3BA4FK801328"},{"address":"Canopy - 916 Springdale Rd - 3 spaces","coordinates":[-97.69877,30.26219,0],"engineType":"CE","exterior":"GOOD","fuel":69,"interior":"GOOD","name":"FBV 4491","smartPhoneRequired":false,"vin":"WMEEJ3BA7FK802926"},{"address":"3501 Greenway St, Austin, TX 78705, USA","coordinates":[-97.72691,30.29513,0],"engineType":"CE","exterior":"GOOD","fuel":18,"interior":"GOOD","name":"FBV 4423","smartPhoneRequired":false,"vin":"WMEEJ3BA5FK799685"},{"address":"2800 Skyway Cir, Austin, TX 78704, USA","coordinates":[-97.78204,30.2452,0],"engineType":"CE","exterior":"GOOD","fuel":100,"interior":"GOOD","name":"JHD 8491","smartPhoneRequired":true,"vin":"WDCTG4GB6HJ337411"},{"address":"1717-1799 W 6th St, Austin, TX 78703, USA","coordinates":[-97.76597,30.27652,0],"engineType":"CE","exterior":"GOOD","fuel":90,"interior":"GOOD","name":"FJC 9937","smartPhoneRequired":false,"vin":"WMEEJ3BA3FK801790"},{"address":"The Parking Spot - 1600 TX-71 - 20 spaces","coordinates":[-97.67597,30.22049,0],"engineType":"CE","exterior":"GOOD","fuel":84,"interior":"GOOD","name":"CSF 9196","smartPhoneRequired":false,"vin":"WMEEJ3BAXEK733812"},{"address":"2884-2900 Barton Skyway, Austin, TX 78746, USA","coordinates":[-97.78822,30.25875,0],"engineType":"CE","exterior":"GOOD","fuel":90,"interior":"GOOD","name":"FBV 4427","smartPhoneRequired":false,"vin":"WMEEJ3BA0FK799514"},{"address":"1115-1199 W 10th St, Austin, TX 78703, USA","coordinates":[-97.75494,30.27575,0],"engineType":"CE","exterior":"GOOD","fuel":27,"interior":"GOOD","name":"FBV 4357","smartPhoneRequired":false,"vin":"WMEEJ3BA8FK798160"},{"address":"West Tower Village - 4532 West Gate Blvd - 1 space","coordinates":[-97.80175,30.23107,0],"engineType":"CE","exterior":"GOOD","fuel":81,"interior":"GOOD","name":"FBV 4440","smartPhoneRequired":false,"vin":"WMEEJ3BAXFK799245"}]}
